landfill_id,state,city,latitude,longitude
IND_001,Delhi,Ghazipur,28.6289,77.3210
IND_002,Mumbai,Deonar,19.0481,72.8890
IND_003,Kolkata,Dhapa,22.57,88.36
IND_004,Chennai,Kodungaiyur,13.13,80.29
IND_005,Hyderabad,Jawahar Nagar,17.52,78.60